$GPRMC,012417.859,V,1856.599,N,15145.602,W,12.0,7.27,020713,,E*4F
$GPGGA,012418.859,1856.599,N,15145.602,W,0,00,,,M,,M,,*54
$GPGLL,1856.599,N,15145.602,W,012419.859,V*35
$GPVTG,7.27,T,,M,12.0,N,22.3,K*52
$GPRMC,012421.859,V,6337.596,N,12330.817,W,66.2,23.41,020713,,E*74
$GPGGA,012422.859,6337.596,N,12330.817,W,0,00,,,M,,M,,*54
$GPGLL,6337.596,N,12330.817,W,012423.859,V*35
$GPVTG,23.41,T,,M,66.2,N,122.7,K*50
$GPRMC,012425.859,V,4036.405,S,12345.259,W,79.9,5.61,020713,,E*57
$GPGGA,012426.859,4036.405,S,12345.259,W,0,00,,,M,,M,,*44
$GPGLL,4036.405,S,12345.259,W,012427.859,V*25
$GPVTG,5.61,T,,M,79.9,N,148.1,K*69
$GPRMC,012429.859,V,1204.851,S,03628.874,E,96.4,32.57,020713,,E*74
$GPGGA,012430.859,1204.851,S,03628.874,E,0,00,,,M,,M,,*51
$GPGLL,1204.851,S,03628.874,E,012431.859,V*30
$GPVTG,32.57,T,,M,96.4,N,178.6,K*50
$GPRMC,012433.859,V,5305.097,N,14110.981,E,0.2,5.66,020713,,E*6A
$GPGGA,012434.859,5305.097,N,14110.981,E,0,00,,,M,,M,,*4F
$GPGLL,5305.097,N,14110.981,E,012435.859,V*2E
$GPVTG,5.66,T,,M,0.2,N,0.4,K*53
$GPRMC,012437.859,V,6526.213,N,12727.531,E,15.5,27.63,020713,,E*61
$GPGGA,012438.859,6526.213,N,12727.531,E,0,00,,,M,,M,,*4A
$GPGLL,6526.213,N,12727.531,E,012439.859,V*2B
$GPVTG,27.63,T,,M,15.5,N,28.7,K*6C
$GPRMC,012441.859,V,6035.163,S,02730.270,W,18.4,10.65,020713,,E*67
$GPGGA,012442.859,6035.163,S,02730.270,W,0,00,,,M,,M,,*4E
$GPGLL,6035.163,S,02730.270,W,012443.859,V*2F
$GPVTG,10.65,T,,M,18.4,N,34.0,K*68
$GPRMC,012445.859,V,0201.478,N,06340.330,W,46.1,1.52,020713,,E*4A
$GPGGA,012446.859,0201.478,N,06340.330,W,0,00,,,M,,M,,*59
$GPGLL,0201.478,N,06340.330,W,012447.859,V*38
$GPVTG,1.52,T,,M,46.1,N,85.4,K*5C
$GPRMC,012449.859,V,8355.578,S,05620.624,E,11.7,22.47,020713,,E*71
$GPGGA,012450.859,8355.578,S,05620.624,E,0,00,,,M,,M,,*58
$GPGLL,8355.578,S,05620.624,E,012451.859,V*39
$GPVTG,22.47,T,,M,11.7,N,21.7,K*60
$GPRMC,012453.859,V,0714.678,N,11722.675,W,94.4,15.81,020713,,E*7D
$GPGGA,012454.859,0714.678,N,11722.675,W,0,00,,,M,,M,,*5B
$GPGLL,0714.678,N,11722.675,W,012455.859,V*3A
$GPVTG,15.81,T,,M,94.4,N,174.9,K*5F
$GPRMC,012457.859,V,0410.869,N,11859.543,E,29.3,31.43,020713,,E*6E
$GPGGA,012458.859,0410.869,N,11859.543,E,0,00,,,M,,M,,*49
$GPGLL,0410.869,N,11859.543,E,012459.859,V*28
$GPVTG,31.43,T,,M,29.3,N,54.2,K*6E
$GPRMC,012501.859,V,1713.292,S,05816.530,W,7.9,21.75,020713,,E*54
$GPGGA,012502.859,1713.292,S,05816.530,W,0,00,,,M,,M,,*4D
$GPGLL,1713.292,S,05816.530,W,012503.859,V*2C
$GPVTG,21.75,T,,M,7.9,N,14.6,K*5C
$GPRMC,012505.859,V,5544.892,N,06129.257,E,76.5,7.52,020713,,E*5A
$GPGGA,012506.859,5544.892,N,06129.257,E,0,00,,,M,,M,,*48
$GPGLL,5544.892,N,06129.257,E,012507.859,V*29
$GPVTG,7.52,T,,M,76.5,N,141.7,K*67
$GPRMC,012509.859,V,6710.471,N,08804.409,E,34.2,9.67,020713,,E*5B
$GPGGA,012510.859,6710.471,N,08804.409,E,0,00,,,M,,M,,*4B
$GPGLL,6710.471,N,08804.409,E,012511.859,V*2A
$GPVTG,9.67,T,,M,34.2,N,63.3,K*5B
$GPRMC,012513.859,V,0108.565,N,01757.153,W,73.8,44.71,020713,,E*72
$GPGGA,012514.859,0108.565,N,01757.153,W,0,00,,,M,,M,,*5A
$GPGLL,0108.565,N,01757.153,W,012515.859,V*3B
$GPVTG,44.71,T,,M,73.8,N,136.7,K*59
$GPRMC,012517.859,V,1323.530,S,06109.529,E,19.7,29.02,020713,,E*7C
$GPGGA,012518.859,1323.530,S,06109.529,E,0,00,,,M,,M,,*50
$GPGLL,1323.530,S,06109.529,E,012519.859,V*31
$GPVTG,29.02,T,,M,19.7,N,36.5,K*66
$GPRMC,012521.859,V,4750.109,N,11252.199,E,46.8,25.54,020713,,E*61
$GPGGA,012522.859,4750.109,N,11252.199,E,0,00,,,M,,M,,*4B
$GPGLL,4750.109,N,11252.199,E,012523.859,V*2A
$GPVTG,25.54,T,,M,46.8,N,86.7,K*65
$GPRMC,012525.859,V,0619.608,S,06617.259,W,55.0,15.84,020713,,E*6C
$GPGGA,012526.859,0619.608,S,06617.259,W,0,00,,,M,,M,,*42
$GPGLL,0619.608,S,06617.259,W,012527.859,V*23
$GPVTG,15.84,T,,M,55.0,N,101.8,K*50
$GPRMC,012529.859,V,2708.672,N,12611.941,E,29.5,14.89,020713,,E*62
$GPGGA,012530.859,2708.672,N,12611.941,E,0,00,,,M,,M,,*45
$GPGLL,2708.672,N,12611.941,E,012531.859,V*24
$GPVTG,14.89,T,,M,29.5,N,54.7,K*6C
$GPRMC,012533.859,V,0747.674,S,02526.977,E,27.6,0.87,020713,,E*4E
$GPGGA,012534.859,0747.674,S,02526.977,E,0,00,,,M,,M,,*50
$GPGLL,0747.674,S,02526.977,E,012535.859,V*31
$GPVTG,0.87,T,,M,27.6,N,51.1,K*59
$GPRMC,012537.859,V,3602.311,N,14932.716,W,56.6,23.10,020713,,E*7E
$GPGGA,012538.859,3602.311,N,14932.716,W,0,00,,,M,,M,,*51
$GPGLL,3602.311,N,14932.716,W,012539.859,V*30
$GPVTG,23.10,T,,M,56.6,N,104.8,K*58
$GPRMC,012541.859,V,3706.293,S,08841.809,E,28.9,35.25,020713,,E*70
$GPGGA,012542.859,3706.293,S,08841.809,E,0,00,,,M,,M,,*54
$GPGLL,3706.293,S,08841.809,E,012543.859,V*35
$GPVTG,35.25,T,,M,28.9,N,53.5,K*61
$GPRMC,012545.859,V,7222.793,N,06903.853,E,4.9,30.04,020713,,E*55
$GPGGA,012546.859,7222.793,N,06903.853,E,0,00,,,M,,M,,*49
$GPGLL,7222.793,N,06903.853,E,012547.859,V*28
$GPVTG,30.04,T,,M,4.9,N,9.1,K*62
$GPRMC,012549.859,V,8109.372,N,10847.732,E,68.2,18.22,020713,,E*66
$GPGGA,012550.859,8109.372,N,10847.732,E,0,00,,,M,,M,,*4E
$GPGLL,8109.372,N,10847.732,E,012551.859,V*2F
$GPVTG,18.22,T,,M,68.2,N,126.2,K*52
$GPRMC,012553.859,V,2636.832,N,06234.819,W,88.5,25.76,020713,,E*78
$GPGGA,012554.859,2636.832,N,06234.819,W,0,00,,,M,,M,,*59
$GPGLL,2636.832,N,06234.819,W,012555.859,V*38
$GPVTG,25.76,T,,M,88.5,N,163.9,K*5E
$GPRMC,012557.859,V,0201.181,N,15703.552,E,16.8,9.27,020713,,E*5C
$GPGGA,012558.859,0201.181,N,15703.552,E,0,00,,,M,,M,,*45
$GPGLL,0201.181,N,15703.552,E,012559.859,V*24
$GPVTG,9.27,T,,M,16.8,N,31.0,K*51
$GPRMC,012601.859,V,1540.238,S,08625.688,W,31.6,4.22,020713,,E*5F
$GPGGA,012602.859,1540.238,S,08625.688,W,0,00,,,M,,M,,*49
$GPGLL,1540.238,S,08625.688,W,012603.859,V*28
$GPVTG,4.22,T,,M,31.6,N,58.6,K*5B
$GPRMC,012605.859,V,8800.401,S,02805.007,E,64.4,44.70,020713,,E*73
$GPGGA,012606.859,8800.401,S,02805.007,E,0,00,,,M,,M,,*54
$GPGLL,8800.401,S,02805.007,E,012607.859,V*35
$GPVTG,44.70,T,,M,64.4,N,119.3,K*5B
$GPRMC,012609.859,V,3922.655,N,09701.540,W,90.9,43.64,020713,,E*7B
$GPGGA,012610.859,3922.655,N,09701.540,W,0,00,,,M,,M,,*53
$GPGLL,3922.655,N,09701.540,W,012611.859,V*32
$GPVTG,43.64,T,,M,90.9,N,168.3,K*59
$GPRMC,012613.859,V,3303.335,N,12929.164,E,89.9,23.38,020713,,E*63
$GPGGA,012614.859,3303.335,N,12929.164,E,0,00,,,M,,M,,*43
$GPGLL,3303.335,N,12929.164,E,012615.859,V*22
$GPVTG,23.38,T,,M,89.9,N,166.4,K*57
